{
"type": "FeatureCollection",
"name": "creciendo_familia",
"crs": { "type": "name", "properties": { "name": "urn:ogc:def:crs:OGC:1.3:CRS84" } },
"features": [
{ "type": "Feature", "properties": { "OBJECTID_1": 795, "OSSNOMBRE": "MEJICO", "OSSDIRECCI": "KR 16 C 65 A 50 SUR", "OSSTELEFON": "3808330", "OSSHORARIO": "LUNES A VIERNES 7:00 AM - 5:00 PM" }, "geometry": { "type": "Point", "coordinates": [ -74.135783580126372, 4.552280584099279 ] } },
{ "type": "Feature", "properties": { "OBJECTID_1": 657, "OSSNOMBRE": "LA PUERTA DEL AMOR", "OSSDIRECCI": "KR 1 22 A 01 SUR", "OSSTELEFON": "3808330", "OSSHORARIO": "LUNES A VIERNES 7:00 AM - 5:00 PM" }, "geometry": { "type": "Point", "coordinates": [ -74.088562466711807, 4.569815807713283 ] } },
{ "type": "Feature", "properties": { "OBJECTID_1": 658, "OSSNOMBRE": "TIERRA DE PAZ", "OSSDIRECCI": "KR 16 A ESTE 46 C 20 SUR", "OSSTELEFON": "3808330", "OSSHORARIO": "LUNES A VIERNES 7:00 AM - 5:00 PM" }, "geometry": { "type": "Point", "coordinates": [ -74.082051973402557, 4.538444590293692 ] } },
{ "type": "Feature", "properties": { "OBJECTID_1": 659, "OSSNOMBRE": "SEMBRADORES DE PAZ", "OSSDIRECCI": "CL 26 SUR 91 C 67", "OSSTELEFON": "3808330", "OSSHORARIO": "LUNES A VIERNES 7:00 AM - 5:00 PM" }, "geometry": { "type": "Point", "coordinates": [ -74.167001835575036, 4.646306138986048 ] } },
{ "type": "Feature", "properties": { "OBJECTID_1": 660, "OSSNOMBRE": "APUSHI", "OSSDIRECCI": "CL 73 D SUR 88 F 50", "OSSTELEFON": "3808330", "OSSHORARIO": "LUNES A VIERNES 7:00 AM - 5:00 PM" }, "geometry": { "type": "Point", "coordinates": [ -74.202204484923101, 4.623051507056985 ] } },
{ "type": "Feature", "properties": { "OBJECTID_1": 662, "OSSNOMBRE": "PASPHA CUNA", "OSSDIRECCI": "CL 37 BIS B SUR 2 81 ESTE", "OSSTELEFON": "3808330", "OSSHORARIO": "LUNES A VIERNES 7:00 AM - 5:00 PM" }, "geometry": { "type": "Point", "coordinates": [ -74.095682058207885, 4.554094408030799 ] } },
{ "type": "Feature", "properties": { "OBJECTID_1": 663, "OSSNOMBRE": "LUZ DE VIDA", "OSSDIRECCI": "CL 33 SUR 10 C 15", "OSSTELEFON": "3808330", "OSSHORARIO": "LUNES A VIERNES 7:00 AM - 5:00 PM" }, "geometry": { "type": "Point", "coordinates": [ -74.103037341583388, 4.568133440550157 ] } },
{ "type": "Feature", "properties": { "OBJECTID_1": 698, "OSSNOMBRE": "ALUNA", "OSSDIRECCI": "KR 104 B 22 J 15", "OSSTELEFON": "3808330", "OSSHORARIO": "LUNES A VIERNES 7:00 AM - 5:00 PM" }, "geometry": { "type": "Point", "coordinates": [ -74.141769290223081, 4.68205510789018 ] } },
{ "type": "Feature", "properties": { "OBJECTID_1": 701, "OSSNOMBRE": "SUMAK KAWSAY", "OSSDIRECCI": "CL 85 SUR 13 14 ESTE", "OSSTELEFON": "3808330", "OSSHORARIO": "LUNES A VIERNES 7:00 AM - 5:00 PM" }, "geometry": { "type": "Point", "coordinates": [ -74.091315806650911, 4.502617335829185 ] } },
{ "type": "Feature", "properties": { "OBJECTID_1": 702, "OSSNOMBRE": "BOTONCILLO DE AGUA", "OSSDIRECCI": "CL 144 139 55", "OSSTELEFON": "6936308", "OSSHORARIO": "LUNES A VIERNES 7:00 AM - 5:00 PM" }, "geometry": { "type": "Point", "coordinates": [ -74.113007712379115, 4.751426208082584 ] } },
{ "type": "Feature", "properties": { "OBJECTID_1": 721, "OSSNOMBRE": "LOS LUCEROS", "OSSDIRECCI": "CL 6 B SUR 0 23 INT 1", "OSSTELEFON": "3808330", "OSSHORARIO": "LUNES A VIERNES 7:00 AM - 5:00 PM" }, "geometry": { "type": "Point", "coordinates": [ -74.080195080251798, 4.57850882057742 ] } },
{ "type": "Feature", "properties": { "OBJECTID_1": 726, "OSSNOMBRE": "PAULO FRERIRE", "OSSDIRECCI": "CL 153 98 A 60", "OSSTELEFON": "3808330", "OSSHORARIO": "LUNES A VIERNES 7:00 AM - 5:00 PM" }, "geometry": { "type": "Point", "coordinates": [ -74.087413678668597, 4.752343729509621 ] } }
]
}
